City_ID,City,Lat,Lng,Max Temp,Humidity,Cloudiness,Wind Speed,Country,Date
0,east london,-33.0153,27.9116,57.18,58,99,5.59,ZA,1686006453
1,grytviken,-54.2811,-36.5092,36.25,97,100,4.56,GS,1686006453
2,bredasdorp,-34.5322,20.0403,47.82,76,61,3.78,ZA,1686006453
3,nadi,-17.8,177.4167,82.4,65,75,3.44,FJ,1686006454
4,kananga,-5.8958,22.4178,70.29,87,56,2.77,CD,1686006454
5,gadzhiyevo,69.2551,33.3362,36.32,97,100,22.01,RU,1686006454
6,port-aux-francais,-49.35,70.2167,37.4,63,52,37.67,TF,1686006454
7,invercargill,-46.4,168.35,42.55,84,29,4.14,NZ,1686006454
8,albany,42.6001,-73.9662,69.58,48,100,6.46,US,1686006265
9,minas de marcona,-15.2119,-75.1103,58.51,78,1,10.4,PE,1686006455
10,uturoa,-16.7333,-151.4333,80.13,70,1,7.61,PF,1686006455
11,holualoa,19.6228,-155.9522,78.55,74,40,10.36,US,1686006455
12,adamstown,-25.066,-130.1015,69.46,60,58,20.33,PN,1686006455
13,timmins,48.4669,-81.3331,64.22,39,75,11.5,CA,1686006325
14,kendari,-3.945,122.4989,75.16,86,24,2.17,ID,1686006455
15,ilulissat,69.2167,-51.1,32.02,74,75,13.8,GL,1686006451
16,puerto natales,-51.7236,-72.4875,35.1,93,45,2.53,CL,1686006456
17,olonkinbyen,70.9221,-8.7187,31.82,84,57,6.85,SJ,1686006456
18,vico del gargano,41.8983,15.9576,63.7,80,100,4.36,IT,1686006456
19,kristiansund,63.1115,7.732,48.85,76,75,9.22,NO,1686006456
20,iskateley,67.6803,53.1512,39.85,75,95,23.76,RU,1686006456
21,tralee,52.2704,-9.7026,55.02,84,38,0.72,IE,1686006457
22,trairi,-3.2778,-39.2689,78.76,80,7,8.97,BR,1686006457
23,georgetown,5.4112,100.3354,80.53,86,40,3.44,MY,1686006326
24,badger,64.8,-147.5333,71.85,27,20,4.61,US,1686006457
25,aral,40.5156,81.2636,71.87,22,2,4.56,CN,1686006457
26,port mathurin,-19.6833,63.4167,76.3,73,12,22.35,MU,1686006457
27,papatowai,-46.5619,169.4708,47.77,72,21,4.59,NZ,1686006457
28,tosontsengel,48.7567,98.2839,52.63,64,42,3.24,MN,1686006458
29,nuuk,64.1835,-51.7216,35.13,99,100,5.7,GL,1686006458
30,stanley,54.868,-1.6985,51.53,88,75,3.44,GB,1686006431
31,illizi,26.4833,8.4667,84.47,15,8,5.97,DZ,1686006458
32,colonia,50.9333,6.95,63.95,58,0,3.44,DE,1686006258
33,punta arenas,-53.15,-70.9167,37.51,93,0,9.22,CL,1686006458
34,ushuaia,-54.8,-68.3,38.73,95,100,5.19,AR,1686006459
35,laguna,38.421,-121.4238,84.43,50,0,10.36,US,1686006459
36,st. john's,47.5649,-52.7093,45.28,96,100,4.61,CA,1686006284
37,lorengau,-2.0226,147.2712,84.42,74,10,8.59,PG,1686006459
38,bethel,41.3712,-73.414,72.75,50,100,5.75,US,1686006292
39,khandyga,62.6667,135.6,59.05,58,88,5.93,RU,1686006459
40,salqin,36.1381,36.4532,64.47,87,27,4.83,SY,1686006460
41,ciudad acuna,29.3232,-100.9522,95.41,33,0,8.05,MX,1686006460
42,kaduna,10.5222,7.4383,78.75,71,59,5.14,NG,1686006460
43,talnakh,69.4865,88.3972,44.26,66,100,10.27,RU,1686006460
44,wailua homesteads,22.0669,-159.378,80.85,73,0,9.22,US,1686006460
45,aasiaat,68.7098,-52.8699,30.96,81,93,10.13,GL,1686006199
46,yellowknife,62.456,-114.3525,58.03,74,73,8.25,CA,1686006461
47,fisterra,42.9049,-9.2629,63.75,83,10,4.92,ES,1686006461
48,tamanrasset,22.785,5.5228,75.11,15,0,5.75,DZ,1686006461
49,namibe,-15.1961,12.1522,67.77,64,4,9.42,AO,1686006461
50,kimbe,-5.5502,150.1429,83.98,73,84,1.16,PG,1686006462
51,adrar,20.5022,-10.0711,86.32,18,18,10.6,MR,1686006462
52,trujillo,-8.116,-79.03,73.36,83,73,6.91,PE,1686006436
53,bonthe,7.5264,-12.505,79.02,86,99,7.58,SL,1686006196
54,kargopol',61.5071,38.9456,44.67,90,97,7.29,RU,1686006462
55,hawaiian paradise park,19.5933,-154.9731,82.72,73,40,11.5,US,1686006462
56,thompson,55.7435,-97.8558,77.16,57,75,4.61,CA,1686006171
57,codrington,-38.2667,141.9667,59.9,78,55,14.38,AU,1686006463
58,alofi,-19.0595,-169.9187,80.49,69,75,16.11,NU,1686006463
59,dolisie,-4.1997,12.6739,69.24,95,66,3.02,CG,1686006463
60,aberdeen,57.1437,-2.0981,50.49,84,100,3.44,GB,1686006269
61,leo,11.1,-2.1,82.26,64,93,10.09,BF,1686006463
62,waitangi,-43.9535,-176.5597,50.83,83,100,4.0,NZ,1686006463
63,edinburgh of the seven seas,-37.0676,-12.3116,53.62,78,100,24.34,SH,1686006463
64,al burayqah,30.4062,19.5739,80.37,45,100,16.26,LY,1686006464
65,cidreira,-30.1811,-50.2056,61.0,70,81,6.04,BR,1686006464
66,atafu village,-8.5421,-172.5159,82.8,74,17,6.6,TK,1686006464
67,gryazi,52.4966,39.9359,50.61,78,6,4.7,RU,1686006464
68,suzun,53.7841,82.3116,68.02,69,0,4.18,RU,1686006464
69,blackmans bay,-43.0167,147.3167,50.74,86,77,10.22,AU,1686006465
70,udachny,66.4167,112.4,34.45,80,92,13.69,RU,1686006465
71,sterling,39.0062,-77.4286,77.79,42,0,11.5,US,1686006392
72,inarajan village,13.2736,144.7484,84.4,83,100,13.31,GU,1686006465
73,yakeshi,49.2833,120.7333,54.43,49,8,4.56,CN,1686006465
74,lillehammer,61.1146,10.4674,52.75,76,59,3.96,NO,1686006465
75,iqaluit,63.7506,-68.5145,36.7,74,60,3.0,CA,1686006466
76,urzhar,47.093,81.6294,67.46,28,58,3.42,KZ,1686006466
77,tiksi,71.6872,128.8694,35.11,95,100,3.11,RU,1686006466
78,howrah,22.5892,88.3103,86.0,84,20,4.61,IN,1686006466
79,pitoa,9.3833,13.5333,76.41,82,100,4.65,CM,1686006466
80,mugia,43.1041,-9.2179,63.91,86,7,6.33,ES,1686006466
81,kingston,17.997,-76.7936,87.21,83,20,1.01,JM,1686006467
82,taoyuan city,24.9937,121.297,85.98,79,20,3.44,TW,1686006467
83,chui,-33.6971,-53.4616,51.15,79,46,1.45,UY,1686006406
84,nishinomiya-hama,34.7167,135.3333,70.2,85,100,5.73,JP,1686006436
85,as sulayyil,20.4607,45.5779,90.54,16,47,6.51,SA,1686006467
86,kiboga,0.9161,31.7742,61.39,91,83,3.22,UG,1686006467
87,quang ngai,15.1167,108.8,78.62,86,98,3.24,VN,1686006468
88,la'ie,21.6477,-157.9253,85.39,64,43,5.01,US,1686006468
89,jinchang,38.4953,102.1739,64.35,46,100,8.7,CN,1686006468
90,necochea,-38.5473,-58.7368,52.14,51,98,14.16,AR,1686006468
91,porto novo,6.4965,2.6036,79.34,82,97,9.01,BJ,1686006468
92,nurota,40.5614,65.6886,77.18,12,0,4.9,UZ,1686006468
93,griffith,41.5284,-87.4237,82.13,35,0,11.5,US,1686006469
94,touros,-5.1989,-35.4608,77.81,81,36,11.59,BR,1686006428
95,revda,56.801,59.9303,46.76,62,24,1.57,RU,1686006469
96,omaruru,-21.4333,15.9333,55.8,13,0,4.34,NA,1686006469
97,constantia,44.1833,28.65,54.7,62,13,9.89,RO,1686006397
98,salekhard,66.53,66.6019,50.5,66,67,10.13,RU,1686006469
99,pisco,-13.7,-76.2167,69.85,73,2,13.8,PE,1686006470
100,ostersund,63.1792,14.6357,45.05,36,100,9.22,SE,1686006470
101,sisimiut,66.9395,-53.6735,33.69,62,27,4.79,GL,1686006470
102,tecate,32.5667,-116.6333,70.16,38,0,12.28,MX,1686006470
103,avarua,-21.2078,-159.775,75.25,53,46,5.75,CK,1686006470
104,saudarkrokur,65.7461,-19.6394,46.13,73,79,2.59,IS,1686006470
105,tarauaca,-8.1614,-70.7656,74.1,96,25,1.77,BR,1686006470
106,keflavik,64.0049,-22.5624,45.03,81,75,9.22,IS,1686006471
107,mo i rana,66.3128,14.1428,39.67,89,100,3.44,NO,1686006471
108,midleton,51.9153,-8.1805,56.98,88,2,4.79,IE,1686006471
109,katsuura,35.1333,140.3,71.58,81,100,11.97,JP,1686006471
110,fortuna,40.5982,-124.1573,57.54,81,0,13.8,US,1686006314
111,edd,13.9297,41.6925,89.44,64,82,5.12,ER,1686006471
112,vorgashor,67.5833,63.95,46.94,69,12,15.32,RU,1686006472
113,fort st. john,56.2499,-120.8529,62.15,29,75,7.72,CA,1686006472
114,hasaki,35.7333,140.8333,77.22,80,100,14.03,JP,1686006472
115,nova vicosa,-17.8919,-39.3719,72.72,69,17,6.31,BR,1686006472
116,corinto,37.9407,22.9573,66.88,57,96,2.82,GR,1686006472
117,souillac,-20.5167,57.5167,75.49,74,66,14.14,MU,1686006472
118,peace river,56.2501,-117.286,57.51,54,100,4.61,CA,1686006363
119,bel ombre,-4.6167,55.4167,80.69,80,36,14.14,SC,1686006473
120,fort bragg,35.139,-79.006,80.46,52,0,10.36,US,1686006473
121,broome,42.2506,-75.833,69.48,35,20,10.36,US,1686006473
122,longyearbyen,78.2186,15.6401,37.24,70,20,12.66,SJ,1686006473
123,chonchi,-42.6128,-73.8092,52.81,83,100,9.57,CL,1686006473
124,petropavlovsk-kamchatsky,53.0452,158.6483,48.79,71,75,4.47,RU,1686006202
125,hermanus,-34.4187,19.2345,43.81,70,32,4.85,ZA,1686006474
126,whitehorse,60.7161,-135.0538,59.31,54,100,8.01,CA,1686006474
127,selfoss,63.9331,-20.9971,45.05,74,24,7.99,IS,1686006474
128,castillos,-34.1667,-53.8333,48.94,82,46,0.98,UY,1686006474
129,mariehamn,60.0973,19.9348,51.82,87,0,4.61,AX,1686006475
130,portland,45.5234,-122.6762,85.15,25,20,18.41,US,1686006399
131,la ronge,55.1001,-105.2842,70.34,67,87,0.98,CA,1686006475
132,altamira,-3.2033,-52.2064,78.62,75,98,3.02,BR,1686006475
133,saguenay,48.4168,-71.0657,63.43,60,100,6.91,CA,1686006475
134,kodiak,57.79,-152.4072,45.91,93,100,23.02,US,1686006476
135,pavlogradka,54.2024,73.5592,71.91,64,97,5.73,RU,1686006476
136,lihue,21.9789,-159.3672,81.45,68,0,9.22,US,1686006476
137,sarikei,2.1167,111.5167,73.96,95,92,2.26,MY,1686006476
138,vernon,50.2581,-119.2691,78.93,19,0,4.0,CA,1686006476
139,popondetta,-8.7537,148.2534,83.79,67,79,1.12,PG,1686006476
140,glace bay,46.1969,-59.957,46.89,97,100,13.8,CA,1686006477
141,timaru,-44.4,171.25,48.07,88,49,4.0,NZ,1686006477
142,bardai,11.65,7.2333,81.63,59,83,10.96,NG,1686006477
143,kavalerovo,44.2661,135.0572,65.91,53,96,2.44,RU,1686006477
144,haiku-pauwela,20.9219,-156.3051,82.42,51,40,25.32,US,1686006477
145,hamilton,39.1834,-84.5333,81.0,33,0,10.36,US,1686006249
146,margaret river,-33.95,115.0667,51.33,71,100,23.47,AU,1686006478
147,akureyri,65.6835,-18.0878,49.14,72,84,3.29,IS,1686006478
148,bhamo,24.2667,97.2333,78.37,76,0,0.58,MM,1686006478
149,ad dabbah,18.05,30.95,94.26,23,24,5.26,SD,1686006478
150,isafjordur,66.0755,-23.124,42.03,91,100,3.24,IS,1686006478
151,pudozh,61.8099,36.5345,41.85,90,72,5.41,RU,1686006479
152,vranov nad toplou,48.8884,21.6848,64.94,80,100,4.12,SK,1686006479
153,lebu,-37.6167,-73.65,55.18,90,99,8.95,CL,1686006479
154,turochak,52.2576,87.1224,61.74,88,2,2.57,RU,1686006479
155,volodarskiy,46.4013,48.5409,66.15,84,43,12.97,RU,1686006479
156,m'tsangamouji,-12.7594,45.0836,78.12,72,3,9.17,YT,1686006479
157,ribeira grande,38.5167,-28.7,64.78,86,100,11.99,PT,1686006480
158,tazovsky,67.4667,78.7,45.63,97,55,9.31,RU,1686006480
159,yuzhno-kurilsk,44.0306,145.8556,54.9,71,30,1.61,RU,1686006480
160,praia da vitoria,38.7333,-27.0667,64.33,85,100,14.25,PT,1686006480
161,mildura,-34.2,142.15,55.08,96,0,9.17,AU,1686006480
162,fort mcmurray,56.7268,-111.381,82.67,47,97,7.52,CA,1686006480
163,ghadamis,30.1337,9.5007,78.53,49,34,18.45,LY,1686006481
164,igarka,67.4667,86.5833,52.21,58,97,8.16,RU,1686006481
165,cidade velha,14.9167,-23.6167,73.87,83,0,5.75,CV,1686006481
166,alice springs,-23.7,133.8833,65.75,55,19,0.0,AU,1686006481
167,mount isa,-20.7333,139.5,67.77,68,2,0.0,AU,1686006481
168,marsh harbour,26.5412,-77.0636,79.25,75,32,15.75,BS,1686006314
169,morehead city,34.7229,-76.726,77.02,71,1,8.01,US,1686006482
170,abra pampa,-22.7205,-65.697,49.95,23,0,4.88,AR,1686006482
171,nadym,65.5333,72.5167,50.38,81,1,9.24,RU,1686006482
172,new norfolk,-42.7826,147.0587,51.91,80,93,2.55,AU,1686006482
173,charters towers,-20.1,146.2667,69.87,72,0,11.92,AU,1686006482
174,pratt,37.6439,-98.7376,83.75,44,75,10.36,US,1686006417
175,kushiro,42.975,144.3747,59.95,82,20,1.14,JP,1686006369
176,ruteng,-8.6136,120.4721,63.32,93,76,1.77,ID,1686006483
177,anadyr,64.75,177.4833,43.3,86,75,22.37,RU,1686006483
178,saldanha,-33.0117,17.9442,52.36,69,10,6.62,ZA,1686006484
179,bilibino,68.0546,166.4372,52.36,55,100,4.05,RU,1686006484
180,nemuro,43.3236,145.575,51.57,81,0,0.29,JP,1686006484
181,san antonio de pale,-1.4014,5.6325,77.18,86,81,11.92,GQ,1686006484
182,quatre cocos,-20.2078,57.7625,75.09,77,39,15.05,MU,1686006484
183,jamestown,42.097,-79.2353,68.02,45,0,4.61,US,1686006485
184,tuy hoa,13.0833,109.3,77.94,86,88,9.91,VN,1686006485
185,tinajo,29.0788,-13.7081,70.68,78,20,4.61,ES,1686006485
186,san matias,-16.3667,-58.4,76.44,54,10,3.4,BO,1686006485
187,nova sintra,14.8667,-24.7167,69.35,80,8,4.03,CV,1686006485
188,chibougamau,49.9168,-74.3659,65.82,37,100,10.36,CA,1686006209
189,mastung,29.7994,66.845,68.58,33,0,2.46,PK,1686006486
190,okha,53.5739,142.9478,54.43,66,97,3.56,RU,1686006486
191,uryupinsk,50.8047,42.0138,49.6,76,18,6.44,RU,1686006486
192,tolanaro,-25.0319,46.9987,68.07,89,0,9.1,MG,1686006486
193,pokrovsk,48.282,37.1758,48.36,78,1,6.51,UA,1686006486
194,waingapu,-9.6567,120.2641,75.9,84,32,4.83,ID,1686006487
195,stara vyzhivka,51.4376,24.44,53.33,71,47,6.38,UA,1686006487
196,bembereke,10.2283,2.6634,75.58,82,88,9.35,BJ,1686006487
197,dudinka,69.4058,86.1778,49.62,54,100,8.32,RU,1686006487
198,chulakkurgan,43.765,69.1814,78.31,14,5,10.18,KZ,1686006487
199,puerto quijarro,-17.7833,-57.7667,76.39,56,53,2.77,BO,1686006488
200,ha'il,27.5219,41.6907,73.42,68,20,4.61,SA,1686006375
201,caleta de carquin,-11.0925,-77.6267,70.99,76,20,8.57,PE,1686006488
202,kerikeri,-35.2268,173.9474,56.91,94,93,3.0,NZ,1686006197
203,daru,-9.0763,143.2092,80.47,87,85,11.34,PG,1686006488
204,lebanon,36.2081,-86.2911,88.02,43,0,10.36,US,1686006234
205,susuman,62.7833,148.1667,57.25,38,13,10.18,RU,1686006489
206,quellon,-43.1167,-73.6167,53.85,82,75,13.8,CL,1686006489
207,petawawa,45.9001,-77.3328,67.78,66,100,5.75,CA,1686006247
208,rio gallegos,-51.6226,-69.2181,42.85,75,0,4.61,AR,1686006221
209,wakkanai,45.4094,141.6739,55.65,86,39,13.35,JP,1686006489
210,shendi,16.6915,33.4341,93.76,34,66,11.5,SD,1686006490
211,namtsy,62.7161,129.6658,56.21,52,26,10.13,RU,1686006490
212,belgrade,44.804,20.4651,64.33,94,0,2.3,RS,1686006490
213,zakamensk,50.3741,103.2863,56.05,58,82,2.62,RU,1686006490
214,manbij,36.5281,37.9549,68.63,66,1,6.78,SY,1686006490
215,west island,-12.1568,96.8225,78.78,78,100,14.97,CC,1686006491
216,hammerfest,70.6634,23.6821,37.85,75,75,9.22,NO,1686006491
217,malinyi,-8.9333,36.1333,69.64,99,99,1.74,TZ,1686006491
218,punta del este,-34.9667,-54.95,53.87,86,0,2.3,UY,1686006389
219,sinabang,2.4803,96.3801,79.56,81,100,1.32,ID,1686006491
220,baiti,13.745,-14.7482,93.04,23,67,11.81,SN,1686006491
221,puerto lempira,15.2667,-83.7667,87.94,66,20,11.5,HN,1686006491
222,nieuw amsterdam,5.8833,-55.0833,79.14,89,40,0.0,SR,1686006492
223,enewetak,11.3474,162.3373,82.31,79,86,8.55,MH,1686006492
224,northam,51.0333,-4.2167,54.61,78,0,7.16,GB,1686006492
225,san borja,-14.8167,-66.85,75.45,81,24,3.24,BO,1686006492
226,chernyshevskiy,63.0128,112.4714,40.68,59,98,9.17,RU,1686006492
227,tshikapa,-6.4167,20.8,75.92,69,93,4.36,CD,1686006493
228,turpan,42.9333,89.1667,80.78,20,1,4.52,CN,1686006493
229,guerrero negro,27.9769,-114.0611,67.21,59,61,18.07,MX,1686006218
230,nelson,-41.2833,173.2833,50.29,86,4,2.33,NZ,1686006493
231,tura,25.5198,90.2201,77.58,55,0,4.68,IN,1686006494
232,horta,38.5333,-28.6333,64.02,86,100,15.99,PT,1686006431
233,walvis bay,-22.9575,14.5053,53.1,79,0,4.18,NA,1686006494
234,kharan,28.5833,65.4167,81.95,22,0,5.12,PK,1686006494
235,menongue,-14.6585,17.691,59.63,46,50,1.28,AO,1686006494
236,puerto ayora,-0.7393,-90.3518,79.56,93,89,7.0,EC,1686006494
237,telsiai,55.9814,22.2472,46.09,83,72,6.15,LT,1686006495
238,flin flon,54.7682,-101.865,80.37,59,35,3.74,CA,1686006495
239,rawson,-43.3002,-65.1023,66.96,27,89,26.11,AR,1686006495
240,vadso,70.0744,29.7487,38.28,81,75,14.97,NO,1686006495
241,raja,8.4596,25.678,70.74,92,98,3.24,SS,1686006495
242,fakenham,52.83,0.8477,53.64,79,100,4.0,GB,1686006495
243,port alfred,-33.5906,26.891,56.59,69,100,6.33,ZA,1686006496
244,taiyuan,37.8694,112.5603,60.66,77,0,4.47,CN,1686006496
245,porto velho,-8.7619,-63.9039,75.25,88,75,4.61,BR,1686006283
246,suva,-18.1416,178.4415,78.28,83,75,2.3,FJ,1686006220
247,zhalantun,48.0,122.7167,63.0,46,19,9.4,CN,1686006496
248,mikhnevo,55.1272,37.9522,49.28,92,8,5.37,RU,1686006497
249,rongelap,11.1635,166.8941,82.13,78,72,16.49,MH,1686006497
250,leh,34.1667,77.5833,44.53,56,100,2.21,IN,1686006497
251,pyapon,16.2833,95.6833,79.52,86,91,5.1,MM,1686006497
252,belo oriente,-19.22,-42.4836,64.31,67,48,2.01,BR,1686006498
253,mitu,1.1983,-70.1733,74.64,97,49,1.54,CO,1686006498
254,santa cruz,-17.8,-63.1667,77.05,69,2,3.44,BO,1686006498
255,plumas lake,39.0207,-121.558,86.2,44,75,12.66,US,1686006308
256,ranau,5.9538,116.6641,70.93,91,97,1.7,MY,1686006498
257,malango,-2.9627,119.9001,68.67,97,90,1.01,ID,1686006498
258,zhob,31.3411,69.4481,71.37,54,8,1.32,PK,1686006499
259,borodulikha,50.7184,80.9295,68.61,49,20,7.25,KZ,1686006499
260,kolonia,50.9333,6.95,63.95,58,0,3.44,DE,1686006258
261,guatrache,-37.6678,-63.5302,56.62,42,88,16.06,AR,1686006499
262,formosa do rio preto,-11.0483,-45.1931,73.33,45,1,2.93,BR,1686006212
263,meadow lake,34.8014,-106.5436,84.94,27,32,9.75,US,1686006500
264,loa janan,-0.583,117.095,74.01,96,88,1.63,ID,1686006500
265,glucksburg,54.8333,9.55,53.37,94,0,6.91,DE,1686006500
266,muisne,0.6,-80.0333,79.68,83,61,6.64,EC,1686006500
267,harpswell center,43.8018,-69.9842,60.22,84,100,4.0,US,1686006500
268,vorkuta,67.5,64.0,47.19,69,14,14.99,RU,1686006501
269,fale old settlement,-9.3852,-171.2468,83.21,75,11,11.34,TK,1686006501
270,gizo,-8.103,156.8419,83.16,75,80,5.57,SB,1686006501
271,nantucket,41.2835,-70.0995,55.99,81,100,13.8,US,1686006442
272,gandajika,-6.75,23.95,75.51,50,100,3.27,CD,1686006501
273,narwana,29.6167,76.1167,82.69,43,6,4.27,IN,1686006501
274,livingstone,-17.8419,25.8543,64.26,36,0,4.81,ZM,1686006502
275,ta`u,-14.2336,-169.5144,81.68,74,57,15.97,AS,1686006502
276,chistopol',55.3631,50.6424,51.24,68,87,4.47,RU,1686006502
277,salalah,17.0151,54.0924,86.09,74,20,5.75,OM,1686006502
278,arkhangel'sk,64.5401,40.5433,41.09,97,91,5.14,RU,1686006502
279,rawlins,41.7911,-107.2387,62.49,51,40,3.44,US,1686006503
280,ponta delgada,37.7333,-25.6667,63.32,88,20,21.85,PT,1686006503
281,letlhakeng,-24.0944,25.0298,55.4,25,0,3.47,BW,1686006503
282,usogorsk,63.4106,48.6872,46.4,85,77,9.51,RU,1686006503
283,college,64.8569,-147.8028,71.92,28,40,4.61,US,1686006434
284,dondon,19.5333,-72.2333,76.39,85,48,5.32,HT,1686006503
285,kayangel,8.0823,134.7173,83.57,80,92,17.52,PW,1686006504
286,port elizabeth,-33.918,25.5701,53.87,72,100,5.39,ZA,1686006504
287,kargasok,59.0556,80.8572,69.44,65,39,5.93,RU,1686006504
288,padangsidempuan,1.3667,99.2667,71.28,98,100,1.54,ID,1686006504
289,las lomitas,-24.7096,-60.593,68.32,97,79,4.05,AR,1686006504
290,ma'rib,15.4591,45.3253,82.11,18,11,0.6,YE,1686006504
291,gaspe,48.8334,-64.4819,46.62,100,100,2.3,CA,1686006327
292,lupane,-18.9315,27.807,58.93,42,0,5.03,ZW,1686006505
293,kiunga,-6.1219,141.2906,78.21,92,90,0.74,PG,1686006505
294,choyr,46.3611,108.3611,57.58,45,22,8.39,MN,1686006505
295,visby,57.6409,18.296,55.62,71,1,13.8,SE,1686006505
296,middelburg,-25.7751,29.4648,55.54,43,0,3.53,ZA,1686006506
297,lido di ostia,41.7321,12.2765,69.28,3,72,4.81,IT,1686006506
298,okhotsk,59.3833,143.3,48.47,71,98,4.72,RU,1686006506
299,mancio lima,-7.6142,-72.8958,73.99,97,48,0.94,BR,1686006506
300,rikaze,29.25,88.8833,45.79,46,4,3.83,CN,1686006506
301,luderitz,-26.6481,15.1594,57.78,51,0,0.27,NA,1686006506
302,lewistown,40.5992,-77.5714,74.88,66,0,0.0,US,1686006484
303,minab,27.1467,57.0801,91.04,32,29,2.3,IR,1686006507
304,joshimath,30.5667,79.5667,57.42,72,72,6.4,IN,1686006507
305,saint-leu,-21.15,55.2833,74.23,87,4,1.9,RE,1686006507
306,saipan,15.1355,145.701,84.9,100,40,18.41,MP,1686006507
307,cockburn town,21.4612,-71.1419,83.77,78,5,3.85,TC,1686006508
308,galle,6.0367,80.217,80.13,86,100,13.98,LK,1686006508
309,papao,-17.75,-149.55,83.88,72,27,10.58,PF,1686006508
310,vilhena,-12.7406,-60.1458,71.82,66,16,3.18,BR,1686006508
311,palangkaraya,-2.2,113.8333,74.28,98,98,1.48,ID,1686006508
312,cabo san lucas,22.8909,-109.9124,92.5,37,0,12.66,MX,1686006499
313,tacuarembo,-31.7333,-55.9833,49.23,76,46,5.19,UY,1686006509
314,navlya,52.8281,34.4989,51.94,71,77,3.18,RU,1686006509
315,ust-nera,64.5667,143.2,59.58,36,53,4.21,RU,1686006509
316,oranjemund,-28.55,16.4333,55.78,74,32,4.45,NA,1686006509
317,dawei,14.0833,98.2,78.75,88,100,6.38,MM,1686006510
318,utrik,11.2278,169.8474,81.1,80,97,20.36,MH,1686006510
319,novobureyskiy,49.798,129.8774,60.31,76,100,8.88,RU,1686006510
320,pacific grove,36.6177,-121.9166,62.65,80,100,15.01,US,1686006510
321,bikenibeu village,1.3673,173.1241,87.76,74,20,8.05,KI,1686006510
322,kudahuvadhoo,2.6708,72.8944,82.49,78,96,10.78,MV,1686006511
323,ciudad melchor muzquiz,27.8833,-101.5167,86.79,41,48,12.48,MX,1686006511
324,blenheim,-41.516,173.9528,54.18,80,29,16.24,NZ,1686006511
325,ulladulla,-35.35,150.4667,56.95,74,98,5.01,AU,1686006511
326,mpongwe,-13.5091,28.155,58.28,49,0,5.46,ZM,1686006511
327,puerto baquerizo moreno,-0.9,-89.6,78.87,82,91,11.07,EC,1686006511
328,ryotsu-minato,38.0833,138.4333,68.54,68,58,8.19,JP,1686006512
329,tres arroyos,-38.3739,-60.2798,50.13,48,97,17.07,AR,1686006512
330,palopo,-2.9996,120.1921,77.52,87,96,2.08,ID,1686006512
331,moranbah,-22.0016,148.0466,66.49,80,54,19.24,AU,1686006512
332,port lincoln,-34.7333,135.8667,59.41,66,0,15.97,AU,1686006512
333,bambari,5.768,20.6757,70.84,95,93,4.72,CF,1686006513
334,oosterwolde,52.989,6.2908,52.16,58,0,1.99,NL,1686006513
335,kangding,30.0513,101.9603,53.94,95,100,2.95,CN,1686006513
336,slave lake,55.2834,-114.769,53.58,94,100,13.8,CA,1686006513
337,alaghsas,17.0187,8.0168,92.61,13,27,9.98,NE,1686006513
338,serhetabat,35.2799,62.3438,72.52,22,8,1.41,TM,1686006514
339,gulf shores,30.246,-87.7008,79.57,67,100,4.0,US,1686006514
340,kapuskasing,49.4169,-82.4331,67.23,29,93,11.07,CA,1686006514
341,gejiu,23.306,103.1635,58.82,95,100,2.04,CN,1686006514
342,pizarro,4.9533,-77.366,81.36,82,79,7.11,CO,1686006514
343,rio grande,-32.035,-52.0986,53.71,72,81,6.17,BR,1686006330
344,al hazm,16.1641,44.7769,83.19,19,7,1.41,YE,1686006515
345,galliano,29.4422,-90.2992,82.4,65,0,3.44,US,1686006515
346,letterkenny,54.95,-7.7333,55.47,79,88,1.54,IE,1686006515
347,anloga,5.7947,0.8973,80.89,81,100,14.2,GH,1686006515
348,ghanzi,-21.5667,21.7833,57.22,28,0,7.2,BW,1686006516
349,arrifes,37.7667,-25.7,61.05,88,20,21.85,PT,1686006516
350,loudi,27.7344,111.9944,69.35,80,100,2.13,CN,1686006516
351,mil'kovo,55.6078,37.7956,54.0,83,17,5.28,RU,1686006516
352,qamdo,31.1667,97.2333,39.67,56,5,4.9,CN,1686006516
353,bogale,16.2833,95.4,79.18,87,95,5.06,MM,1686006516
354,sandnessjoen,66.0217,12.6316,39.72,69,100,5.37,NO,1686006517
355,belaya kholunitsa,58.84,50.8528,44.73,89,14,5.03,RU,1686006517
356,kambah,-35.3862,149.058,51.37,94,100,0.0,AU,1686006517
357,egersund,58.4513,5.9997,49.08,90,0,15.59,NO,1686006517
358,xiangxiang,27.7333,112.5333,68.67,77,91,3.83,CN,1686006267
359,santa maria,-29.6842,-53.8069,60.19,96,91,5.21,BR,1686006517
360,mantyharju,61.4167,26.8833,39.31,77,44,5.61,FI,1686006517
361,kovur,14.4833,79.9833,90.66,44,96,8.7,IN,1686006518
362,malvan,16.0667,73.4667,82.81,80,37,8.46,IN,1686006376
363,taghazout,30.5426,-9.7112,68.77,81,94,3.02,MA,1686006518
364,bryne,58.7354,5.6477,49.57,88,0,12.66,NO,1686006518
365,leava,-14.3,-178.1667,80.8,77,100,13.78,WF,1686006518
366,kawant,22.1,74.05,82.89,71,0,9.42,IN,1686006518
367,malvik,63.4333,10.6833,45.99,93,100,11.5,NO,1686006519
368,ternate,0.8,127.4,82.15,77,29,3.85,ID,1686006519
369,nogliki,51.8333,143.1667,55.18,62,96,15.48,RU,1686006519
370,dalmatovo,56.26,62.9362,56.21,68,2,6.62,RU,1686006519
371,afaahiti,-17.75,-149.2833,82.27,72,39,9.42,PF,1686006519
372,coquimbo,-29.9533,-71.3436,56.93,88,0,1.14,CL,1686006323
373,al mawsil al jadidah,36.3346,43.0978,80.1,24,100,7.16,IQ,1686006520
374,ubata,-14.2139,-39.5228,72.5,72,100,3.65,BR,1686006250
375,boende,-0.2167,20.8667,69.44,99,82,2.04,CD,1686006520
376,los frentones,-26.4077,-61.4137,68.13,97,99,2.42,AR,1686006521
377,susaki,33.3667,133.2833,61.23,94,100,2.91,JP,1686006521
378,dryden,49.7833,-92.7503,70.09,73,100,5.75,CA,1686006521
379,loen,7.7601,168.2307,82.71,79,30,18.39,MH,1686006521
380,la passe,45.5549,-0.8967,70.03,70,9,8.75,FR,1686006521
381,sao vicente,-23.9631,-46.3919,70.99,26,23,1.92,BR,1686006477
382,greymouth,-42.4667,171.2,49.6,69,0,6.85,NZ,1686006244
383,brookings,44.3114,-96.7984,88.09,40,20,0.0,US,1686006300
384,siilinjarvi,63.0833,27.6667,46.89,60,0,7.0,FI,1686006522
385,kuqa,41.7278,82.9364,73.47,17,18,6.06,CN,1686006522
386,sao paulo de olivenca,-3.3783,-68.8725,75.45,97,55,2.46,BR,1686006522
387,urumqi,43.801,87.6005,72.55,19,0,2.24,CN,1686006522
388,newman,37.3138,-121.0208,88.14,40,84,7.0,US,1686006522
389,pascagoula,30.3658,-88.5561,82.45,73,0,9.22,US,1686006523
390,tazacorte,28.629,-17.9293,72.57,91,75,18.41,ES,1686006523
391,concepcion,-36.827,-73.0498,55.2,94,100,2.3,CL,1686006523
392,guiglo,6.5456,-7.4966,72.63,99,100,2.55,CI,1686006524
393,mahibadhoo,3.7833,72.9667,82.81,77,99,12.28,MV,1686006524
394,belgaum,15.8667,74.5,72.25,85,80,8.9,IN,1686006524
395,miches,18.9836,-69.0476,83.91,73,3,11.65,DO,1686006524
396,bereznik,62.8551,42.7072,48.81,77,99,8.5,RU,1686006524
397,ust'-ilimsk,58.0006,102.6619,48.79,88,44,6.42,RU,1686006357
398,tranqueras,-31.2,-55.75,50.63,81,67,3.49,UY,1686006233
399,mujiayingzi,42.1167,118.7833,65.77,35,0,12.73,CN,1686006525
400,yazoo city,32.8551,-90.4056,70.57,86,92,10.11,US,1686006525
401,tangalle,6.024,80.7911,79.23,85,97,12.82,LK,1686006525
402,karratha,-20.7377,116.8463,64.2,64,42,10.0,AU,1686006525
403,shimoda,34.6667,138.95,73.11,73,100,2.73,JP,1686006525
404,sidney,-33.8679,151.2073,58.35,92,75,6.91,AU,1686006520
405,la gi,10.6667,107.7833,76.14,86,100,13.04,VN,1686006526
406,santa elena de uairen,4.6167,-61.1333,68.59,93,48,4.29,VE,1686006526
407,taltal,-25.4,-70.4833,60.64,85,24,2.66,CL,1686006526
408,lagunas,-5.2269,-75.6753,74.25,93,70,2.55,PE,1686006526
409,ivdel',60.6911,60.4206,48.13,68,0,3.98,RU,1686006526
410,sayhat,26.4852,50.0405,80.8,44,29,2.8,SA,1686006527
411,ulsteinvik,62.3432,5.8487,53.76,80,93,7.0,NO,1686006527
412,qaqortoq,60.7167,-46.0333,38.23,79,93,2.42,GL,1686006527
413,lazaro cardenas,17.9583,-102.2,83.86,67,26,10.13,MX,1686006371
414,mana,5.6592,-53.7767,77.83,90,44,7.87,GF,1686006527
415,weno,7.4515,151.8468,84.15,84,100,9.22,FM,1686006527
416,zapala,-38.8992,-70.0544,54.84,46,100,13.49,AR,1686006527
417,mata-utu,-13.2816,-176.1745,81.36,78,100,16.22,WF,1686006528
418,inhambane,-23.865,35.3833,72.57,91,0,2.19,MZ,1686006528
419,christchurch,-43.5333,172.6333,51.33,90,75,9.22,NZ,1686006528
420,kailua-kona,19.6406,-155.9956,82.27,74,40,10.36,US,1686006528
421,sechura,-5.5569,-80.8222,79.92,64,14,14.79,PE,1686006528
422,sur,22.5667,59.5289,91.24,45,20,12.48,OM,1686006528
423,gamba,-2.65,10.0,72.57,95,84,6.24,GA,1686006529
424,flying fish cove,-10.4217,105.6791,74.88,78,75,8.05,CX,1686006529
425,zhangye,38.9342,100.4517,64.92,46,99,3.98,CN,1686006529
426,awjilah,29.1081,21.2869,88.12,23,91,26.28,LY,1686006529
427,banda aceh,5.5577,95.3222,80.71,75,100,12.82,ID,1686006529
428,ciudad lazaro cardenas,17.9583,-102.2,83.86,67,26,10.13,MX,1686006528
429,mahanoro,-19.9,48.8,67.39,91,9,5.48,MG,1686006530
430,port saint john's,-31.6229,29.5448,58.86,56,98,4.59,ZA,1686006530
431,cavelossim,15.1726,73.9419,85.98,83,68,7.0,IN,1686006530
432,shahr-e babak,30.1165,55.1186,69.64,39,53,6.17,IR,1686006530
433,san juan,-31.5375,-68.5364,59.88,55,65,5.46,AR,1686006515
434,cromer,52.9312,1.2989,53.6,78,100,16.11,GB,1686006530
435,sola,-13.8833,167.55,79.34,80,97,20.24,VU,1686006531
436,zag,46.9441,99.165,53.08,54,32,4.36,MN,1686006531
437,palmeiras de goias,-16.805,-49.9258,65.73,49,61,3.15,BR,1686006531
438,petrovsk-zabaykal'skiy,51.273,108.843,55.54,87,100,13.91,RU,1686006531
439,salavat,53.3837,55.9077,53.96,67,98,8.72,RU,1686006531
440,mikun',62.3547,50.0771,45.09,97,63,7.81,RU,1686006531
441,san patricio,28.017,-97.5169,87.17,60,59,6.96,US,1686006532
442,weihai,37.5017,122.1136,66.06,76,60,13.6,CN,1686006532
443,hachinohe,40.5,141.5,69.85,48,2,9.69,JP,1686006532
444,mahina,-17.5065,-149.489,83.97,61,40,9.22,PF,1686006532
445,sinaloa de leyva,25.8333,-108.2333,94.15,22,26,13.49,MX,1686006532
446,monrovia,6.3005,-10.7969,78.48,85,100,8.41,LR,1686006533
447,chipata,-13.6333,32.65,60.26,78,8,4.09,ZM,1686006533
448,sao jose da coroa grande,-8.8978,-35.1478,77.07,83,52,5.84,BR,1686006533
449,ilebo,-4.3167,20.5833,69.42,99,82,1.54,CD,1686006533
450,rosa zarate,0.3333,-79.4667,77.4,92,84,4.54,EC,1686006267
451,kontcha,7.9667,12.2333,71.49,96,100,2.8,CM,1686006533
452,tianpeng,30.9866,103.9393,65.88,76,94,5.06,CN,1686006534
453,talcahuano,-36.7167,-73.1167,55.08,94,100,2.3,CL,1686006535
454,naestved,55.2299,11.7609,50.25,72,0,3.65,DK,1686006535
455,pachino,36.7186,15.0907,68.23,84,100,18.95,IT,1686006535
456,sanctuary point,-35.1114,150.629,63.99,74,100,4.59,AU,1686006535
457,tobruk,32.0836,23.9764,70.09,71,90,10.76,LY,1686006535
458,posse,-14.0931,-46.3694,68.2,41,2,4.74,BR,1686006536
459,arraial do cabo,-22.9661,-42.0278,70.92,78,1,7.02,BR,1686006536
460,madras,13.0878,80.2785,83.97,77,40,16.11,IN,1686006387
461,upata,8.0086,-62.3989,79.2,75,65,5.46,VE,1686006536
462,westport,41.1415,-73.3579,74.08,63,100,2.46,US,1686006536
463,kill devil hills,36.0307,-75.676,69.8,73,0,6.91,US,1686006536
464,cam ranh,11.9214,109.1591,78.76,89,40,1.14,VN,1686006536
465,fada,9.5667,8.3,70.57,93,78,2.39,NG,1686006537
466,sharkawshchyna,55.3713,27.4706,46.06,82,55,4.05,BY,1686006537
467,wewak,-3.5534,143.6268,80.65,86,80,6.91,PG,1686006537
468,polyarnyy,69.1989,33.4478,36.55,97,100,21.9,RU,1686006537
469,langxiang,46.95,128.8833,63.12,66,92,2.01,CN,1686006537
470,lubawka,50.7046,16.0003,57.67,91,100,0.54,PL,1686006537
471,ceeldheer,3.8488,47.1806,80.17,83,48,16.02,SO,1686006538
472,linda,39.1277,-121.5508,90.32,42,0,12.66,US,1686006538
473,aktau,43.65,51.2,72.18,87,40,10.49,KZ,1686006538
474,kerrville,30.0474,-99.1403,84.42,44,40,4.61,US,1686006275
475,oxenford,-27.8903,153.3131,66.94,81,63,3.0,AU,1686006538
476,iyidere,41.0119,40.3619,66.16,89,47,4.52,TR,1686006538
477,sitka,57.0531,-135.33,51.69,71,75,9.22,US,1686006539
478,altay,47.8667,88.1167,66.79,42,0,6.91,CN,1686006539
479,alta,69.9689,23.2717,40.26,75,75,17.27,NO,1686006274
480,bahia honda,22.9036,-83.1592,81.05,68,56,6.82,CU,1686006539
481,yeed,4.55,43.0333,79.39,64,68,15.93,SO,1686006539
482,pangody,65.85,74.4859,51.13,90,25,15.21,RU,1686006539
483,kapa'a,22.0752,-159.319,82.18,72,0,9.22,US,1686006540
484,dikhil,11.5,42.1667,85.78,33,46,2.84,DJ,1686006540
485,bengkulu,-3.8004,102.2655,74.19,92,52,3.24,ID,1686006540
486,mkushi,-13.6202,29.3939,57.99,54,0,3.87,ZM,1686006540
487,labrador city,52.9463,-66.9114,48.11,76,100,11.5,CA,1686006540
488,klyuchi,52.2667,79.1667,70.41,59,9,7.47,RU,1686006540
489,tvoroyri,61.5556,-6.8111,49.44,86,5,11.99,FO,1686006541
490,lengshuitan,26.4111,111.5956,69.87,90,100,2.77,CN,1686006541
491,al mindak,20.1588,41.2834,71.4,41,43,2.62,SA,1686006541
492,tsiombe,-25.3,45.4833,69.53,76,17,5.48,MG,1686006541
493,carnarvon,-24.8667,113.6333,66.31,58,99,16.98,AU,1686006358
494,itoman,26.1247,127.6694,80.98,78,75,14.97,JP,1686006542
495,happy valley-goose bay,53.3168,-60.3315,55.56,52,67,11.65,CA,1686006542
496,khorixas,-20.3667,14.9667,59.61,19,0,2.98,NA,1686006542
497,harper,4.375,-7.7169,78.19,87,100,8.08,LR,1686006542
498,neiafu,-18.65,-173.9833,77.68,83,75,11.5,TO,1686006542
499,at taj,24.2049,23.2857,92.91,20,81,11.56,LY,1686006543
500,imbituba,-28.24,-48.6703,65.7,81,87,9.24,BR,1686006543
501,beitbridge,-22.2167,30.0,66.49,72,0,26.55,ZW,1686006543
502,singkawang,0.9,109.0,77.23,93,100,2.84,ID,1686006543
503,manokwari,-0.8667,134.0833,81.28,75,74,3.87,ID,1686006501
504,kisangani,0.5167,25.2,69.1,99,97,2.04,CD,1686006362
505,nassau,40.7507,-73.5829,74.91,53,75,5.75,US,1686006544
506,hithadhoo,-0.6,73.0833,82.2,75,97,3.53,MV,1686006544
507,vallenar,-28.5708,-70.7581,63.18,56,22,1.3,CL,1686006544
508,suomussalmi,64.8869,28.9078,40.44,69,34,8.52,FI,1686006544
509,pahrump,36.2083,-115.9839,97.25,10,37,18.01,US,1686006544
510,hobyo,5.3505,48.5268,81.7,80,59,18.72,SO,1686006545
511,vielha,42.6846,0.7726,47.07,93,98,3.33,ES,1686006545
512,half moon bay,37.4636,-122.4286,79.05,68,0,16.11,US,1686006545
513,leer,53.2316,7.461,50.0,92,0,7.2,DE,1686006545
514,ancud,-41.8697,-73.8203,52.27,87,100,15.7,CL,1686006545
515,yverdon-les-bains,46.7785,6.6412,62.92,70,20,6.15,CH,1686006546
516,tabou,4.423,-7.3528,77.86,88,100,8.1,CI,1686006546
517,bria,6.5423,21.9863,69.13,97,94,4.76,CF,1686006546
518,sretensk,52.2453,117.7093,55.45,31,100,2.44,RU,1686006546
519,qarazhal,48.0078,70.7903,69.62,30,26,5.88,KZ,1686006546
520,greenville,35.6127,-77.3663,78.84,42,0,4.61,US,1686006348
521,ilomantsi,62.6716,30.9328,39.38,73,44,5.77,FI,1686006547
522,cascais,38.6979,-9.4215,71.06,67,63,10.0,PT,1686006416
523,sawakin,19.1059,37.3321,86.83,69,24,6.46,SD,1686006547
524,ceerigaabo,10.6162,47.368,65.48,71,79,10.76,SO,1686006547
525,tambopata,-12.7333,-69.1833,76.89,83,0,0.0,PE,1686006547
526,sosnovo-ozerskoye,52.5249,111.5418,52.84,79,98,15.86,RU,1686006548
527,rumoi,43.9344,141.6428,62.71,67,16,5.93,JP,1686006548
528,dierdorf,50.55,7.6667,62.83,75,8,3.8,DE,1686006548
529,bubaque,11.2833,-15.8333,81.57,72,100,15.86,GW,1686006548
530,narvik,68.4384,17.4272,42.21,90,100,5.82,NO,1686006548
531,broken hill,-31.95,141.4333,57.58,74,0,7.61,AU,1686006549
532,calama,-22.4667,-68.9333,59.49,6,0,4.61,CL,1686006549
533,nar'yan-mar,67.6713,53.087,39.97,74,95,23.94,RU,1686006549
534,jinghong,21.991,100.7341,70.36,98,53,0.78,CN,1686006549
535,champerico,14.3,-91.9167,83.89,76,100,6.62,GT,1686006549
536,belel,7.05,14.4333,61.23,98,99,3.67,CM,1686006550
537,zhangjiakou,40.81,114.8794,66.76,31,0,5.64,CN,1686006550
538,figuig (centre),32.1089,-1.2286,74.19,45,94,5.08,MA,1686006550
539,arroyo de la luz,39.4851,-6.584,71.26,50,79,2.19,ES,1686006550
540,nizhniy ingash,56.2,96.53,62.01,88,33,4.83,RU,1686006550
541,stephenville,32.2207,-98.2023,82.15,60,0,1.01,US,1686006550
542,kitee,62.1,30.15,41.43,71,21,5.82,FI,1686006551
543,vilyuchinsk,52.9306,158.4028,51.26,90,100,2.51,RU,1686006551
544,la tuque,47.4334,-72.7824,68.68,55,100,2.15,CA,1686006551
545,ibaiti,-23.8486,-50.1878,55.89,72,0,3.2,BR,1686006551
546,rakops,-21.0167,24.3333,64.83,24,0,7.09,BW,1686006551
547,zhezqazghan,47.7833,67.7667,66.78,34,0,4.47,KZ,1686006552
548,hassi messaoud,31.6804,6.0729,80.42,38,33,8.48,DZ,1686006552
549,merizo village,13.2658,144.6691,83.98,82,100,13.38,GU,1686006552
550,bareilly,28.35,79.4167,84.7,32,0,0.54,IN,1686006552
551,berezovyy,51.6667,135.7,65.55,54,89,0.49,RU,1686006552
552,thames,-37.1333,175.5333,53.29,95,100,13.31,NZ,1686006298
553,qui nhon,13.7667,109.2333,79.12,83,100,5.1,VN,1686006553
554,kirakira,-10.4544,161.9205,83.57,72,76,5.44,SB,1686006553
555,margate,51.3813,1.3862,52.9,74,11,8.01,GB,1686006296
556,garachico,28.7781,-17.7646,69.91,83,75,18.41,ES,1686006553
557,strezhevoy,60.7333,77.5889,68.23,81,30,3.83,RU,1686006553
558,agua dulce,18.1333,-94.1333,80.38,64,96,6.2,MX,1686006408
559,groningen,53.25,6.75,51.17,85,0,4.61,NL,1686006510
560,mar del plata,-38.0023,-57.5575,55.09,63,97,7.0,AR,1686006554
561,al quwayrah,29.8004,35.3116,68.05,46,0,2.3,JO,1686006554
562,itaporanga,-7.3044,-38.1503,78.22,46,26,9.51,BR,1686006554
563,neryungri,56.6709,124.6491,41.29,94,100,8.57,RU,1686006555
564,itaituba,-4.2761,-55.9836,78.1,76,21,1.9,BR,1686006289
565,dongobesh,-4.0667,35.3833,55.63,91,46,8.97,TZ,1686006555
566,xilin hot,43.9667,116.0333,59.27,47,34,9.31,CN,1686006555
567,tarko-sale,64.9225,77.785,59.18,81,57,18.75,RU,1686006555
568,sakaiminato,35.55,133.2333,68.59,69,100,8.41,JP,1686006555
569,nueva gerona,21.8833,-82.8,85.19,52,46,6.08,CU,1686006556
570,gidole,5.65,37.3667,58.5,76,94,3.27,ET,1686006556
571,puerto deseado,-47.7503,-65.8938,55.45,58,100,29.35,AR,1686006556
572,lompoc,34.6391,-120.4579,66.34,82,100,10.36,US,1686006430
573,crane,31.3974,-102.3501,81.72,36,73,14.2,US,1686006556
574,nasarawa,8.5294,7.7242,77.05,88,76,6.24,NG,1686006556
575,north platte,41.1239,-100.7654,81.37,51,100,12.66,US,1686006539
576,tsetserleg,47.475,101.4542,52.57,67,9,5.66,MN,1686006557
577,ilha de mocambique,-15.0342,40.7358,77.86,71,0,8.5,MZ,1686006557
578,sao francisco de paula,-29.4481,-50.5836,52.68,97,94,2.46,BR,1686006557
